{
  "type": "FeatureCollection",
  "generator": "overpass-turbo",
  "copyright": "The data included in this document is from www.openstreetmap.org. The data is made available under ODbL.",
  "timestamp": "2026-02-18T09:36:06Z",
  "features": [
    {
      "type": "Feature",
      "properties": {
        "@id": "node/103191362",
        "bus": "yes",
        "highway": "bus_stop",
        "name": "Estación de Servicio Campa",
        "public_transport": "platform"
      },
      "geometry": {
        "type": "Point",
        "coordinates": [
          -5.7120533,
          43.5381199
        ]
      },
      "id": "node/103191362"
    },
    {
      "type": "Feature",
      "properties": {
        "@id": "node/240972086",
        "bench": "no",
        "bin": "no",
        "bus": "yes",
        "highway": "bus_stop",
        "lit": "yes",
        "name": "Museo Evaristo Valle",
        "operator": "EMTUSA",
        "public_transport": "platform",
        "ref": "505",
        "shelter": "no",
        "tactile_paving": "no"
      },
      "geometry": {
        "type": "Point",
        "coordinates": [
          -5.61698,
          43.5333842
        ]
      },
      "id": "node/240972086"
    },
    {
      "type": "Feature",
      "properties": {
        "@id": "node/315489155",
        "bench": "yes",
        "bin": "yes",
        "bus": "yes",
        "highway": "bus_stop",
        "lit": "yes",
        "name": "El Molinón",
        "public_transport": "platform",
        "shelter": "yes",
        "tactile_paving": "no"
      },
      "geometry": {
        "type": "Point",
        "coordinates": [
          -5.6359469,
          43.5341938
        ]
      },
      "id": "node/315489155"
    },
    {
      "type": "Feature",
      "properties": {
        "@id": "node/315489452",
        "bench": "yes",
        "bin": "yes",
        "bus": "yes",
        "highway": "bus_stop",
        "lit": "yes",
        "name": "Las Mestas",
        "public_transport": "platform",
        "shelter": "yes",
        "tactile_paving": "no"
      },
      "geometry": {
        "type": "Point",
        "coordinates": [
          -5.6385768,
          43.5343909
        ]
      },
      "id": "node/315489452"
    },
    {
      "type": "Feature",
      "properties": {
        "@id": "node/315489684",
        "bench": "yes",
        "bin": "no",
        "bus": "yes",
        "highway": "bus_stop",
        "lit": "no",
        "name": "El Parque",
        "public_transport": "platform",
        "shelter": "yes",
        "tactile_paving": "yes"
      },
      "geometry": {
        "type": "Point",
        "coordinates": [
          -5.6422412,
          43.5350264
        ]
      },
      "id": "node/315489684"
    },
    {
      "type": "Feature",
      "properties": {
        "@id": "node/315489781",
        "bench": "yes",
        "bin": "yes",
        "bus": "yes",
        "departures_board": "realtime",
        "highway": "bus_stop",
        "lit": "yes",
        "name": "Plaza de Toros",
        "operator": "EMTUSA",
        "public_transport": "platform",
        "ref": "95",
        "shelter": "yes",
        "tactile_paving": "yes"
      },
      "geometry": {
        "type": "Point",
        "coordinates": [
          -5.6448148,
          43.5360056
        ]
      },
      "id": "node/315489781"
    },
    {
      "type": "Feature",
      "properties": {
        "@id": "node/315489982",
        "bench": "yes",
        "bin": "no",
        "bus": "yes",
        "highway": "bus_stop",
        "lit": "yes",
        "name": "Marques de Urquijo",
        "public_transport": "platform",
        "shelter": "yes",
        "tactile_paving": "yes"
      },
      "geometry": {
        "type": "Point",
        "coordinates": [
          -5.6481312,
          43.5374917
        ]
      },
      "id": "node/315489982"
    },
    {
      "type": "Feature",
      "properties": {
        "@id": "node/315490350",
        "bench": "yes",
        "bin": "no",
        "bus": "yes",
        "highway": "bus_stop",
        "name": "Fábrica de Gas",
        "public_transport": "platform",
        "shelter": "yes",
        "tactile_paving": "no"
      },
      "geometry": {
        "type": "Point",
        "coordinates": [
          -5.6511783,
          43.5388087
        ]
      },
      "id": "node/315490350"
    },
    {
      "type": "Feature",
      "properties": {
        "@id": "node/483573988",
        "bus": "yes",
        "highway": "bus_stop",
        "name": "La Playa",
        "public_transport": "platform"
      },
      "geometry": {
        "type": "Point",
        "coordinates": [
          -5.654251,
          43.5389922
        ]
      },
      "id": "node/483573988"
    },
    {
      "type": "Feature",
      "properties": {
        "@id": "node/483574189",
        "bench": "yes",
        "bin": "yes",
        "bus": "yes",
        "highway": "bus_stop",
        "lit": "yes",
        "name": "Capuchinos",
        "public_transport": "platform",
        "shelter": "yes",
        "tactile_paving": "no"
      },
      "geometry": {
        "type": "Point",
        "coordinates": [
          -5.6533587,
          43.5377113
        ]
      },
      "id": "node/483574189"
    },
    {
      "type": "Feature",
      "properties": {
        "@id": "node/483574692",
        "bench": "yes",
        "bin": "yes",
        "bus": "yes",
        "highway": "bus_stop",
        "lit": "yes",
        "name": "Los Campos",
        "public_transport": "platform",
        "shelter": "yes",
        "tactile_paving": "no"
      },
      "geometry": {
        "type": "Point",
        "coordinates": [
          -5.6536364,
          43.537525
        ]
      },
      "id": "node/483574692"
    },
    {
      "type": "Feature",
      "properties": {
        "@id": "node/500056810",
        "bench": "no",
        "bin": "yes",
        "bus": "yes",
        "highway": "bus_stop",
        "name": "Dionisio de la Huerta",
        "public_transport": "platform",
        "shelter": "no",
        "tactile_paving": "no"
      },
      "geometry": {
        "type": "Point",
        "coordinates": [
          -5.6335383,
          43.5313181
        ]
      },
      "id": "node/500056810"
    },
    {
      "type": "Feature",
      "properties": {
        "@id": "node/500056812",
        "bench": "no",
        "bus": "yes",
        "highway": "bus_stop",
        "name": "Parque Las Cocheras",
        "public_transport": "platform",
        "shelter": "no"
      },
      "geometry": {
        "type": "Point",
        "coordinates": [
          -5.6477245,
          43.5363749
        ]
      },
      "id": "node/500056812"
    },
    {
      "type": "Feature",
      "properties": {
        "@id": "node/500056814",
        "bench": "yes",
        "bin": "yes",
        "bus": "yes",
        "highway": "bus_stop",
        "lit": "yes",
        "name": "Continental",
        "public_transport": "platform",
        "shelter": "yes",
        "tactile_paving": "no"
      },
      "geometry": {
        "type": "Point",
        "coordinates": [
          -5.6502105,
          43.5372296
        ]
      },
      "id": "node/500056814"
    },
    {
      "type": "Feature",
      "properties": {
        "@id": "node/500056816",
        "bench": "yes",
        "bin": "yes",
        "bus": "yes",
        "highway": "bus_stop",
        "name": "Begoña",
        "public_transport": "platform",
        "shelter": "yes",
        "wheelchair": "limited"
      },
      "geometry": {
        "type": "Point",
        "coordinates": [
          -5.6611747,
          43.5371296
        ]
      },
      "id": "node/500056816"
    },
    {
      "type": "Feature",
      "properties": {
        "@id": "node/500056818",
        "bench": "yes",
        "bus": "yes",
        "highway": "bus_stop",
        "name": "Begoña",
        "public_transport": "platform",
        "shelter": "yes",
        "wheelchair": "limited"
      },
      "geometry": {
        "type": "Point",
        "coordinates": [
          -5.6608274,
          43.537032
        ]
      },
      "id": "node/500056818"
    },
    {
      "type": "Feature",
      "properties": {
        "@id": "node/500056830",
        "bench": "yes",
        "bin": "yes",
        "bus": "yes",
        "highway": "bus_stop",
        "lit": "no",
        "name": "Universidad Laboral",
        "public_transport": "platform",
        "shelter": "yes",
        "tactile_paving": "no"
      },
      "geometry": {
        "type": "Point",
        "coordinates": [
          -5.6130226,
          43.5240947
        ]
      },
      "id": "node/500056830"
    },
    {
      "type": "Feature",
      "properties": {
        "@id": "node/500056832",
        "bench": "yes",
        "bin": "yes",
        "bus": "yes",
        "highway": "bus_stop",
        "lit": "yes",
        "name": "Jardín Botánico",
        "public_transport": "platform",
        "shelter": "yes",
        "tactile_paving": "no"
      },
      "geometry": {
        "type": "Point",
        "coordinates": [
          -5.6157512,
          43.5219142
        ]
      },
      "id": "node/500056832"
    },
    {
      "type": "Feature",
      "properties": {
        "@id": "node/500056834",
        "bench": "yes",
        "bin": "no",
        "bus": "yes",
        "highway": "bus_stop",
        "lit": "yes",
        "name": "INTRA",
        "public_transport": "platform",
        "shelter": "yes",
        "tactile_paving": "no"
      },
      "geometry": {
        "type": "Point",
        "coordinates": [
          -5.6238991,
          43.524841
        ]
      },
      "id": "node/500056834"
    },
    {
      "type": "Feature",
      "properties": {
        "@id": "node/500056836",
        "bench": "yes",
        "bin": "no",
        "bus": "yes",
        "highway": "bus_stop",
        "lit": "yes",
        "name": "Chalets",
        "public_transport": "platform",
        "shelter": "yes",
        "tactile_paving": "no"
      },
      "geometry": {
        "type": "Point",
        "coordinates": [
          -5.6306417,
          43.5289161
        ]
      },
      "id": "node/500056836"
    },
    {
      "type": "Feature",
      "properties": {
        "@id": "node/500056838",
        "bench": "no",
        "bin": "yes",
        "bus": "yes",
        "highway": "bus_stop",
        "lit": "yes",
        "name": "Parque Tecnologico",
        "public_transport": "platform",
        "shelter": "no",
        "tactile_paving": "no"
      },
      "geometry": {
        "type": "Point",
        "coordinates": [
          -5.6135354,
          43.5230668
        ]
      },
      "id": "node/500056838"
    },
    {
      "type": "Feature",
      "properties": {
        "@id": "node/500056839",
        "bus": "yes",
        "highway": "bus_stop",
        "name": "Tanatorio",
        "public_transport": "platform",
        "shelter": "no"
      },
      "geometry": {
        "type": "Point",
        "coordinates": [
          -5.6096527,
          43.5243145
        ]
      },
      "id": "node/500056839"
    },
    {
      "type": "Feature",
      "properties": {
        "@id": "node/500056841",
        "bench": "no",
        "bin": "yes",
        "bus": "yes",
        "highway": "bus_stop",
        "lit": "yes",
        "name": "Hospital de Cabueñes",
        "public_transport": "platform",
        "shelter": "no",
        "tactile_paving": "no"
      },
      "geometry": {
        "type": "Point",
        "coordinates": [
          -5.608136,
          43.5248201
        ]
      },
      "id": "node/500056841"
    },
    {
      "type": "Feature",
      "properties": {
        "@id": "node/500056843",
        "bench": "yes",
        "bin": "yes",
        "bus": "yes",
        "highway": "bus_stop",
        "lit": "yes",
        "name": "Hospital de Cabueñes",
        "public_transport": "platform",
        "shelter": "yes",
        "tactile_paving": "no"
      },
      "geometry": {
        "type": "Point",
        "coordinates": [
          -5.6084533,
          43.524858
        ]
      },
      "id": "node/500056843"
    },
    {
      "type": "Feature",
      "properties": {
        "@id": "node/500056845",
        "bench": "yes",
        "bin": "yes",
        "bus": "yes",
        "departures_board": "timetable",
        "highway": "bus_stop",
        "name": "Tanatorio",
        "operator": "EMTUSA",
        "public_transport": "platform",
        "ref": "35",
        "shelter": "yes",
        "tactile_paving": "no",
        "wheelchair": "limited"
      },
      "geometry": {
        "type": "Point",
        "coordinates": [
          -5.609958,
          43.5243725
        ]
      },
      "id": "node/500056845"
    },
    {
      "type": "Feature",
      "properties": {
        "@id": "node/500056847",
        "bench": "yes",
        "bus": "yes",
        "highway": "bus_stop",
        "name": "Chalets",
        "public_transport": "platform",
        "shelter": "yes"
      },
      "geometry": {
        "type": "Point",
        "coordinates": [
          -5.630589,
          43.5287626
        ]
      },
      "id": "node/500056847"
    },
    {
      "type": "Feature",
      "properties": {
        "@id": "node/500056848",
        "bench": "no",
        "bin": "no",
        "bus": "yes",
        "highway": "bus_stop",
        "lit": "yes",
        "name": "Ctra. Villaviciosa (Escuela de Marina)",
        "public_transport": "platform",
        "shelter": "no",
        "tactile_paving": "no"
      },
      "geometry": {
        "type": "Point",
        "coordinates": [
          -5.6272587,
          43.5264227
        ]
      },
      "id": "node/500056848"
    },
    {
      "type": "Feature",
      "properties": {
        "@id": "node/500056849",
        "bench": "yes",
        "bin": "no",
        "bus": "yes",
        "highway": "bus_stop",
        "lit": "yes",
        "name": "INTRA",
        "public_transport": "platform",
        "shelter": "yes",
        "tactile_paving": "no"
      },
      "geometry": {
        "type": "Point",
        "coordinates": [
          -5.6237869,
          43.5246504
        ]
      },
      "id": "node/500056849"
    },
    {
      "type": "Feature",
      "properties": {
        "@id": "node/500056851",
        "bench": "yes",
        "bin": "yes",
        "bus": "yes",
        "highway": "bus_stop",
        "lit": "yes",
        "name": "Jardín Botánico",
        "public_transport": "platform",
        "shelter": "yes",
        "tactile_paving": "no"
      },
      "geometry": {
        "type": "Point",
        "coordinates": [
          -5.6155576,
          43.5217128
        ]
      },
      "id": "node/500056851"
    },
    {
      "type": "Feature",
      "properties": {
        "@id": "node/500056858",
        "bench": "yes",
        "bin": "no",
        "bus": "yes",
        "highway": "bus_stop",
        "lit": "no",
        "name": "La Asunción",
        "public_transport": "platform",
        "shelter": "yes",
        "tactile_paving": "no"
      },
      "geometry": {
        "type": "Point",
        "coordinates": [
          -5.6434204,
          43.5341815
        ]
      },
      "id": "node/500056858"
    },
    {
      "type": "Feature",
      "properties": {
        "@id": "node/500056860",
        "bench": "yes",
        "bin": "no",
        "bus": "yes",
        "highway": "bus_stop",
        "lit": "yes",
        "name": "Las Mestas",
        "public_transport": "platform",
        "shelter": "yes",
        "tactile_paving": "yes"
      },
      "geometry": {
        "type": "Point",
        "coordinates": [
          -5.6384053,
          43.5340419
        ]
      },
      "id": "node/500056860"
    },
    {
      "type": "Feature",
      "properties": {
        "@id": "node/500056861",
        "bus": "yes",
        "highway": "bus_stop",
        "name": "La Guia",
        "public_transport": "platform"
      },
      "geometry": {
        "type": "Point",
        "coordinates": [
          -5.63303,
          43.5323586
        ]
      },
      "id": "node/500056861"
    },
    {
      "type": "Feature",
      "properties": {
        "@id": "node/500056872",
        "bench": "yes",
        "bin": "yes",
        "bus": "yes",
        "departures_board": "yes",
        "highway": "bus_stop",
        "name": "Plaza de Toros",
        "operator": "EMTUSA",
        "public_transport": "platform",
        "ref": "83",
        "shelter": "yes",
        "wheelchair": "yes"
      },
      "geometry": {
        "type": "Point",
        "coordinates": [
          -5.646198,
          43.5350044
        ]
      },
      "id": "node/500056872"
    },
    {
      "type": "Feature",
      "properties": {
        "@id": "node/500056878",
        "bench": "yes",
        "bin": "no",
        "bus": "yes",
        "highway": "bus_stop",
        "lit": "no",
        "name": "Reconquista",
        "operator": "EMTUSA",
        "public_transport": "platform",
        "ref": "20",
        "shelter": "no",
        "tactile_paving": "no",
        "wheelchair": "limited"
      },
      "geometry": {
        "type": "Point",
        "coordinates": [
          -5.6555121,
          43.5357457
        ]
      },
      "id": "node/500056878"
    },
    {
      "type": "Feature",
      "properties": {
        "@id": "node/500056880",
        "bench": "yes",
        "bin": "yes",
        "bus": "yes",
        "highway": "bus_stop",
        "lit": "yes",
        "name": "Ramón y Cajal",
        "public_transport": "platform",
        "shelter": "yes",
        "tactile_paving": "no"
      },
      "geometry": {
        "type": "Point",
        "coordinates": [
          -5.6526342,
          43.5354386
        ]
      },
      "id": "node/500056880"
    },
    {
      "type": "Feature",
      "properties": {
        "@id": "node/500056882",
        "bench": "yes",
        "bin": "no",
        "bus": "yes",
        "highway": "bus_stop",
        "lit": "yes",
        "name": "Codema",
        "public_transport": "platform",
        "shelter": "yes",
        "tactile_paving": "yes"
      },
      "geometry": {
        "type": "Point",
        "coordinates": [
          -5.6489702,
          43.5353014
        ]
      },
      "id": "node/500056882"
    },
    {
      "type": "Feature",
      "properties": {
        "@id": "node/619746631",
        "bus": "yes",
        "highway": "bus_stop",
        "name": "Móstoles",
        "public_transport": "platform"
      },
      "geometry": {
        "type": "Point",
        "coordinates": [
          -5.6844114,
          43.540385
        ]
      },
      "id": "node/619746631"
    },
    {
      "type": "Feature",
      "properties": {
        "@id": "node/949050909",
        "bus": "yes",
        "highway": "bus_stop",
        "name": "Plaza de La Habana",
        "public_transport": "platform"
      },
      "geometry": {
        "type": "Point",
        "coordinates": [
          -5.6843503,
          43.5376529
        ]
      },
      "id": "node/949050909"
    },
    {
      "type": "Feature",
      "properties": {
        "@id": "node/949098007",
        "bus": "yes",
        "highway": "bus_stop",
        "name": "Acuario",
        "operator": "EMTUSA",
        "public_transport": "platform",
        "ref": "55"
      },
      "geometry": {
        "type": "Point",
        "coordinates": [
          -5.6752431,
          43.5405316
        ]
      },
      "id": "node/949098007"
    },
    {
      "type": "Feature",
      "properties": {
        "@id": "node/996165439",
        "bus": "yes",
        "highway": "bus_stop",
        "name": "Cortes de Cádiz",
        "public_transport": "platform",
        "shelter": "no"
      },
      "geometry": {
        "type": "Point",
        "coordinates": [
          -5.6847518,
          43.5387855
        ]
      },
      "id": "node/996165439"
    },
    {
      "type": "Feature",
      "properties": {
        "@id": "node/996165464",
        "bus": "yes",
        "highway": "bus_stop",
        "name": "Comisaría",
        "public_transport": "platform"
      },
      "geometry": {
        "type": "Point",
        "coordinates": [
          -5.6796923,
          43.539003
        ]
      },
      "id": "node/996165464"
    },
    {
      "type": "Feature",
      "properties": {
        "@id": "node/996165548",
        "bench": "yes",
        "bus": "yes",
        "highway": "bus_stop",
        "name": "Plaza de La Habana",
        "operator": "EMTUSA",
        "public_transport": "platform",
        "shelter": "yes"
      },
      "geometry": {
        "type": "Point",
        "coordinates": [
          -5.6832554,
          43.5377751
        ]
      },
      "id": "node/996165548"
    },
    {
      "type": "Feature",
      "properties": {
        "@id": "node/998853294",
        "bench": "yes",
        "bus": "yes",
        "highway": "bus_stop",
        "name": "Acuario",
        "operator": "EMTUSA",
        "public_transport": "platform",
        "ref": "13",
        "shelter": "yes",
        "tactile_paving": "no"
      },
      "geometry": {
        "type": "Point",
        "coordinates": [
          -5.6758854,
          43.5396989
        ]
      },
      "id": "node/998853294"
    },
    {
      "type": "Feature",
      "properties": {
        "@id": "node/1016260527",
        "bus": "yes",
        "highway": "bus_stop",
        "name": "Florez Estrada",
        "public_transport": "platform"
      },
      "geometry": {
        "type": "Point",
        "coordinates": [
          -5.7009255,
          43.5417971
        ]
      },
      "id": "node/1016260527"
    },
    {
      "type": "Feature",
      "properties": {
        "@id": "node/1029614886",
        "bench": "yes",
        "bin": "yes",
        "bus": "yes",
        "highway": "bus_stop",
        "lit": "yes",
        "name": "Capua",
        "public_transport": "platform",
        "shelter": "yes",
        "tactile_paving": "no"
      },
      "geometry": {
        "type": "Point",
        "coordinates": [
          -5.6586768,
          43.5414174
        ]
      },
      "id": "node/1029614886"
    },
    {
      "type": "Feature",
      "properties": {
        "@id": "node/1029793148",
        "bench": "yes",
        "bin": "yes",
        "bus": "yes",
        "highway": "bus_stop",
        "lit": "yes",
        "name": "El Parchís",
        "public_transport": "platform",
        "shelter": "yes",
        "tactile_paving": "no"
      },
      "geometry": {
        "type": "Point",
        "coordinates": [
          -5.6616838,
          43.5416257
        ]
      },
      "id": "node/1029793148"
    },
    {
      "type": "Feature",
      "properties": {
        "@id": "node/1029794517",
        "bus": "yes",
        "highway": "bus_stop",
        "name": "El Parchís",
        "public_transport": "platform",
        "shelter": "no"
      },
      "geometry": {
        "type": "Point",
        "coordinates": [
          -5.6612819,
          43.5413767
        ]
      },
      "id": "node/1029794517"
    },
    {
      "type": "Feature",
      "properties": {
        "@id": "node/1029794564",
        "bus": "yes",
        "highway": "bus_stop",
        "name": "Cura Sama",
        "public_transport": "platform"
      },
      "geometry": {
        "type": "Point",
        "coordinates": [
          -5.6572091,
          43.5403107
        ]
      },
      "id": "node/1029794564"
    },
    {
      "type": "Feature",
      "properties": {
        "@id": "node/1032481565",
        "bench": "yes",
        "bin": "yes",
        "bus": "yes",
        "highway": "bus_stop",
        "lit": "yes",
        "name": "Pedro Duro",
        "public_transport": "platform",
        "shelter": "yes",
        "tactile_paving": "no"
      },
      "geometry": {
        "type": "Point",
        "coordinates": [
          -5.6672889,
          43.5427331
        ]
      },
      "id": "node/1032481565"
    },
    {
      "type": "Feature",
      "properties": {
        "@id": "node/1032498861",
        "bench": "yes",
        "bin": "no",
        "bus": "yes",
        "check_date:bench": "2023-04-24",
        "covered": "yes",
        "highway": "bus_stop",
        "name": "Plaza del Carmen",
        "public_transport": "platform",
        "shelter": "yes",
        "tactile_paving": "no",
        "wheelchair": "limited"
      },
      "geometry": {
        "type": "Point",
        "coordinates": [
          -5.6643589,
          43.5419509
        ]
      },
      "id": "node/1032498861"
    },
    {
      "type": "Feature",
      "properties": {
        "@id": "node/1032498917",
        "bench": "yes",
        "bin": "yes",
        "bus": "yes",
        "covered": "yes",
        "highway": "bus_stop",
        "name": "Plaza del Carmen",
        "public_transport": "platform",
        "wheelchair": "yes"
      },
      "geometry": {
        "type": "Point",
        "coordinates": [
          -5.6644907,
          43.542191
        ]
      },
      "id": "node/1032498917"
    },
    {
      "type": "Feature",
      "properties": {
        "@id": "node/1032499022",
        "bench": "yes",
        "bin": "yes",
        "bus": "yes",
        "highway": "bus_stop",
        "lit": "yes",
        "name": "Alvarez Garaya",
        "public_transport": "platform",
        "shelter": "yes",
        "tactile_paving": "no"
      },
      "geometry": {
        "type": "Point",
        "coordinates": [
          -5.6652536,
          43.5416896
        ]
      },
      "id": "node/1032499022"
    },
    {
      "type": "Feature",
      "properties": {
        "@id": "node/1044250126",
        "bus": "yes",
        "highway": "bus_stop",
        "name": "Jardines de la Reina",
        "public_transport": "platform"
      },
      "geometry": {
        "type": "Point",
        "coordinates": [
          -5.6651222,
          43.5434407
        ]
      },
      "id": "node/1044250126"
    },
    {
      "type": "Feature",
      "properties": {
        "@id": "node/1175610658",
        "bench": "yes",
        "bin": "yes",
        "bus": "yes",
        "check_date:shelter": "2025-03-06",
        "highway": "bus_stop",
        "lit": "yes",
        "name": "Plaza de La Luz",
        "operator": "EMTUSA",
        "public_transport": "platform",
        "ref": "11",
        "shelter": "yes",
        "tactile_paving": "no",
        "wheelchair": "limited"
      },
      "geometry": {
        "type": "Point",
        "coordinates": [
          -5.6817627,
          43.540297
        ]
      },
      "id": "node/1175610658"
    },
    {
      "type": "Feature",
      "properties": {
        "@id": "node/1175610812",
        "bench": "yes",
        "bin": "yes",
        "bus": "yes",
        "check_date:shelter": "2025-03-06",
        "highway": "bus_stop",
        "lit": "yes",
        "name": "Revillagigedo",
        "operator": "EMTUSA",
        "public_transport": "platform",
        "ref": "56",
        "shelter": "yes",
        "tactile_paving": "no",
        "wheelchair": "limited"
      },
      "geometry": {
        "type": "Point",
        "coordinates": [
          -5.6806738,
          43.5403434
        ]
      },
      "id": "node/1175610812"
    },
    {
      "type": "Feature",
      "properties": {
        "@id": "node/1175611405",
        "bench": "yes",
        "bin": "yes",
        "bus": "yes",
        "check_date:shelter": "2025-03-06",
        "highway": "bus_stop",
        "lit": "yes",
        "name": "Avenida de Galicia (Dirección El Cerillero)",
        "operator": "EMTUSA",
        "public_transport": "platform",
        "route_ref": "5;12",
        "shelter": "yes",
        "tactile_paving": "no",
        "wheelchair": "limited"
      },
      "geometry": {
        "type": "Point",
        "coordinates": [
          -5.6835004,
          43.5405729
        ]
      },
      "id": "node/1175611405"
    },
    {
      "type": "Feature",
      "properties": {
        "@id": "node/1175611432",
        "bus": "yes",
        "highway": "bus_stop",
        "name": "Revillagigedo",
        "operator": "EMTUSA",
        "public_transport": "platform",
        "ref": "12",
        "source": "PNOA;survey",
        "source:date": "2009",
        "wheelchair": "limited"
      },
      "geometry": {
        "type": "Point",
        "coordinates": [
          -5.6789802,
          43.5401013
        ]
      },
      "id": "node/1175611432"
    },
    {
      "type": "Feature",
      "properties": {
        "@id": "node/1176148364",
        "bus": "yes",
        "highway": "bus_stop",
        "name": "Fátima",
        "public_transport": "platform"
      },
      "geometry": {
        "type": "Point",
        "coordinates": [
          -5.7007067,
          43.539223
        ]
      },
      "id": "node/1176148364"
    },
    {
      "type": "Feature",
      "properties": {
        "@id": "node/1224766205",
        "bus": "yes",
        "highway": "bus_stop",
        "name": "Casa del Mar",
        "public_transport": "platform"
      },
      "geometry": {
        "type": "Point",
        "coordinates": [
          -5.6947562,
          43.5416347
        ]
      },
      "id": "node/1224766205"
    },
    {
      "type": "Feature",
      "properties": {
        "@id": "node/1224766216",
        "bench": "yes",
        "bin": "yes",
        "bus": "yes",
        "highway": "bus_stop",
        "lit": "yes",
        "name": "Cuatro Caminos",
        "operator": "EMTUSA",
        "public_transport": "platform",
        "ref": "59",
        "shelter": "yes",
        "tactile_paving": "no"
      },
      "geometry": {
        "type": "Point",
        "coordinates": [
          -5.6920133,
          43.5397913
        ]
      },
      "id": "node/1224766216"
    },
    {
      "type": "Feature",
      "properties": {
        "@id": "node/1224766322",
        "bus": "yes",
        "highway": "bus_stop",
        "name": "Casa del Mar",
        "public_transport": "platform"
      },
      "geometry": {
        "type": "Point",
        "coordinates": [
          -5.6951946,
          43.5426002
        ]
      },
      "id": "node/1224766322"
    },
    {
      "type": "Feature",
      "properties": {
        "@id": "node/1224766678",
        "bus": "yes",
        "highway": "bus_stop",
        "name": "INEM",
        "public_transport": "platform"
      },
      "geometry": {
        "type": "Point",
        "coordinates": [
          -5.7049214,
          43.5394822
        ]
      },
      "id": "node/1224766678"
    },
    {
      "type": "Feature",
      "properties": {
        "@id": "node/1224766754",
        "bus": "yes",
        "highway": "bus_stop",
        "name": "Cuatro Caminos",
        "operator": "EMTUSA",
        "public_transport": "platform",
        "ref": "9"
      },
      "geometry": {
        "type": "Point",
        "coordinates": [
          -5.69096,
          43.5398315
        ]
      },
      "id": "node/1224766754"
    },
    {
      "type": "Feature",
      "properties": {
        "@id": "node/1224766866",
        "bus": "yes",
        "highway": "bus_stop",
        "name": "Camin del Rubin",
        "public_transport": "platform"
      },
      "geometry": {
        "type": "Point",
        "coordinates": [
          -5.7070152,
          43.5394909
        ]
      },
      "id": "node/1224766866"
    },
    {
      "type": "Feature",
      "properties": {
        "@id": "node/1224777573",
        "bus": "yes",
        "highway": "bus_stop",
        "name": "Gran Capitán",
        "public_transport": "platform"
      },
      "geometry": {
        "type": "Point",
        "coordinates": [
          -5.7017136,
          43.5398793
        ]
      },
      "id": "node/1224777573"
    },
    {
      "type": "Feature",
      "properties": {
        "@id": "node/1224777575",
        "bus": "yes",
        "highway": "bus_stop",
        "name": "Prao del Cubano",
        "public_transport": "platform"
      },
      "geometry": {
        "type": "Point",
        "coordinates": [
          -5.699463,
          43.5404543
        ]
      },
      "id": "node/1224777575"
    },
    {
      "type": "Feature",
      "properties": {
        "@id": "node/1224870353",
        "bench": "yes",
        "bin": "yes",
        "bus": "yes",
        "check_date:bench": "2022-09-11",
        "covered": "yes",
        "highway": "bus_stop",
        "name": "Humedal (Lado Semaforo)",
        "operator": "EMTUSA",
        "public_transport": "platform",
        "ref": "51",
        "shelter": "yes",
        "tactile_paving": "no",
        "wheelchair": "yes"
      },
      "geometry": {
        "type": "Point",
        "coordinates": [
          -5.6659931,
          43.5394764
        ]
      },
      "id": "node/1224870353"
    },
    {
      "type": "Feature",
      "properties": {
        "@id": "node/1224870368",
        "bus": "yes",
        "highway": "bus_stop",
        "name": "Uruguay",
        "operator": "EMTUSA",
        "public_transport": "platform",
        "ref": "594"
      },
      "geometry": {
        "type": "Point",
        "coordinates": [
          -5.6974083,
          43.5391703
        ]
      },
      "id": "node/1224870368"
    },
    {
      "type": "Feature",
      "properties": {
        "@id": "node/1224870412",
        "bench": "yes",
        "bin": "yes",
        "bus": "yes",
        "highway": "bus_stop",
        "lit": "yes",
        "name": "Iglesia de San José",
        "operator": "EMTUSA",
        "public_transport": "platform",
        "ref": "16",
        "shelter": "yes",
        "tactile_paving": "no"
      },
      "geometry": {
        "type": "Point",
        "coordinates": [
          -5.6664407,
          43.5410408
        ]
      },
      "id": "node/1224870412"
    },
    {
      "type": "Feature",
      "properties": {
        "@id": "node/1224870504",
        "bench": "yes",
        "bin": "yes",
        "bus": "yes",
        "highway": "bus_stop",
        "lit": "yes",
        "name": "Plaza Europa",
        "operator": "EMTUSA",
        "public_transport": "platform",
        "ref": "131",
        "shelter": "yes",
        "tactile_paving": "no"
      },
      "geometry": {
        "type": "Point",
        "coordinates": [
          -5.6653698,
          43.538338
        ]
      },
      "id": "node/1224870504"
    },
    {
      "type": "Feature",
      "properties": {
        "@id": "node/1224870556",
        "bench": "yes",
        "bin": "yes",
        "bus": "yes",
        "highway": "bus_stop",
        "name": "Ateneo",
        "operator": "EMTUSA",
        "public_transport": "platform",
        "ref": "132",
        "shelter": "yes"
      },
      "geometry": {
        "type": "Point",
        "coordinates": [
          -5.6949884,
          43.539455
        ]
      },
      "id": "node/1224870556"
    },
    {
      "type": "Feature",
      "properties": {
        "@id": "node/1224870596",
        "bench": "yes",
        "bin": "no",
        "bus": "yes",
        "highway": "bus_stop",
        "name": "Gota de Leche (Lado Magnus Blikstad)",
        "public_transport": "platform",
        "shelter": "yes",
        "tactile_paving": "no"
      },
      "geometry": {
        "type": "Point",
        "coordinates": [
          -5.6663472,
          43.5392253
        ]
      },
      "id": "node/1224870596"
    },
    {
      "type": "Feature",
      "properties": {
        "@id": "node/1224870716",
        "bus": "yes",
        "highway": "bus_stop",
        "name": "Peru",
        "public_transport": "platform"
      },
      "geometry": {
        "type": "Point",
        "coordinates": [
          -5.6969104,
          43.5413853
        ]
      },
      "id": "node/1224870716"
    },
    {
      "type": "Feature",
      "properties": {
        "@id": "node/1224870771",
        "bus": "yes",
        "highway": "bus_stop",
        "name": "Dos de Mayo",
        "public_transport": "platform"
      },
      "geometry": {
        "type": "Point",
        "coordinates": [
          -5.6854973,
          43.5384303
        ]
      },
      "id": "node/1224870771"
    },
    {
      "type": "Feature",
      "properties": {
        "@id": "node/1224870809",
        "bench": "yes",
        "bus": "yes",
        "highway": "bus_stop",
        "name": "Playa de Poniente",
        "operator": "EMTUSA",
        "public_transport": "platform",
        "ref": "54",
        "shelter": "yes",
        "tactile_paving": "no"
      },
      "geometry": {
        "type": "Point",
        "coordinates": [
          -5.670947,
          43.5416318
        ]
      },
      "id": "node/1224870809"
    },
    {
      "type": "Feature",
      "properties": {
        "@id": "node/1224870863",
        "bus": "yes",
        "highway": "bus_stop",
        "name": "Barros",
        "public_transport": "platform"
      },
      "geometry": {
        "type": "Point",
        "coordinates": [
          -5.705773,
          43.5411276
        ]
      },
      "id": "node/1224870863"
    },
    {
      "type": "Feature",
      "properties": {
        "@id": "node/1224870887",
        "bench": "yes",
        "bus": "yes",
        "highway": "bus_stop",
        "name": "Pedro Duro",
        "operator": "EMTUSA",
        "public_transport": "platform",
        "ref": "15",
        "shelter": "yes",
        "tactile_paving": "no"
      },
      "geometry": {
        "type": "Point",
        "coordinates": [
          -5.667689,
          43.5418694
        ]
      },
      "id": "node/1224870887"
    },
    {
      "type": "Feature",
      "properties": {
        "@id": "node/1224870932",
        "bus": "yes",
        "highway": "bus_stop",
        "name": "Martin",
        "public_transport": "platform"
      },
      "geometry": {
        "type": "Point",
        "coordinates": [
          -5.7026046,
          43.5414912
        ]
      },
      "id": "node/1224870932"
    },
    {
      "type": "Feature",
      "properties": {
        "@id": "node/1226251901",
        "bus": "yes",
        "highway": "bus_stop",
        "name": "Santa Olaya",
        "operator": "EMTUSA",
        "public_transport": "platform",
        "ref": "10",
        "shelter": "no"
      },
      "geometry": {
        "type": "Point",
        "coordinates": [
          -5.6875092,
          43.540242
        ]
      },
      "id": "node/1226251901"
    },
    {
      "type": "Feature",
      "properties": {
        "@id": "node/1226251902",
        "bench": "no",
        "bin": "yes",
        "bus": "yes",
        "highway": "bus_stop",
        "name": "Santa Olaya",
        "operator": "EMTUSA",
        "public_transport": "platform",
        "ref": "58",
        "shelter": "no"
      },
      "geometry": {
        "type": "Point",
        "coordinates": [
          -5.687595,
          43.5403106
        ]
      },
      "id": "node/1226251902"
    },
    {
      "type": "Feature",
      "properties": {
        "@id": "node/1228171740",
        "bus": "yes",
        "highway": "bus_stop",
        "name": "El Corte Inglés (C./ Velázquez)",
        "public_transport": "platform",
        "shelter": "no",
        "tactile_paving": "no"
      },
      "geometry": {
        "type": "Point",
        "coordinates": [
          -5.6793412,
          43.5233834
        ]
      },
      "id": "node/1228171740"
    },
    {
      "type": "Feature",
      "properties": {
        "@id": "node/1228171824",
        "bus": "yes",
        "highway": "bus_stop",
        "name": "Parque Antonio Ortega",
        "public_transport": "platform",
        "shelter": "no"
      },
      "geometry": {
        "type": "Point",
        "coordinates": [
          -5.6774169,
          43.5221674
        ]
      },
      "id": "node/1228171824"
    },
    {
      "type": "Feature",
      "properties": {
        "@id": "node/1228171894",
        "bus": "yes",
        "highway": "bus_stop",
        "name": "Parque Antonio Ortega",
        "public_transport": "platform"
      },
      "geometry": {
        "type": "Point",
        "coordinates": [
          -5.6769566,
          43.5214977
        ]
      },
      "id": "node/1228171894"
    },
    {
      "type": "Feature",
      "properties": {
        "@id": "node/1228171964",
        "bus": "yes",
        "highway": "bus_stop",
        "name": "Montevil Oeste",
        "public_transport": "platform"
      },
      "geometry": {
        "type": "Point",
        "coordinates": [
          -5.674124,
          43.5200832
        ]
      },
      "id": "node/1228171964"
    },
    {
      "type": "Feature",
      "properties": {
        "@id": "node/1228231428",
        "bus": "yes",
        "highway": "bus_stop",
        "name": "Montevil Oeste",
        "public_transport": "platform"
      },
      "geometry": {
        "type": "Point",
        "coordinates": [
          -5.6740218,
          43.5196414
        ]
      },
      "id": "node/1228231428"
    },
    {
      "type": "Feature",
      "properties": {
        "@id": "node/1229430876",
        "bus": "yes",
        "highway": "bus_stop",
        "name": "General Gutiérrez Mellado",
        "operator": "EMTUSA",
        "public_transport": "platform",
        "ref": "124"
      },
      "geometry": {
        "type": "Point",
        "coordinates": [
          -5.6697198,
          43.5181025
        ]
      },
      "id": "node/1229430876"
    },
    {
      "type": "Feature",
      "properties": {
        "@id": "node/1229431720",
        "bus": "yes",
        "highway": "bus_stop",
        "name": "Eduardo Varela",
        "operator": "EMTUSA",
        "public_transport": "platform",
        "ref": "399"
      },
      "geometry": {
        "type": "Point",
        "coordinates": [
          -5.6684244,
          43.5177575
        ]
      },
      "id": "node/1229431720"
    },
    {
      "type": "Feature",
      "properties": {
        "@id": "node/1229432092",
        "bus": "yes",
        "highway": "bus_stop",
        "name": "Antonio Machado",
        "operator": "EMTUSA",
        "public_transport": "platform",
        "ref": "393"
      },
      "geometry": {
        "type": "Point",
        "coordinates": [
          -5.6712914,
          43.5179824
        ]
      },
      "id": "node/1229432092"
    },
    {
      "type": "Feature",
      "properties": {
        "@id": "node/1229623266",
        "bench": "yes",
        "bus": "yes",
        "highway": "bus_stop",
        "name": "Calle Azorín",
        "public_transport": "platform",
        "shelter": "yes"
      },
      "geometry": {
        "type": "Point",
        "coordinates": [
          -5.6699631,
          43.5186785
        ]
      },
      "id": "node/1229623266"
    },
    {
      "type": "Feature",
      "properties": {
        "@id": "node/1229668379",
        "bench": "yes",
        "bin": "yes",
        "bus": "yes",
        "highway": "bus_stop",
        "name": "Ronda Exterior",
        "operator": "EMTUSA",
        "public_transport": "platform",
        "ref": "121",
        "shelter": "yes"
      },
      "geometry": {
        "type": "Point",
        "coordinates": [
          -5.6658675,
          43.5186449
        ]
      },
      "id": "node/1229668379"
    },
    {
      "type": "Feature",
      "properties": {
        "@id": "node/1229668427",
        "bus": "yes",
        "highway": "bus_stop",
        "name": "Río Narcea",
        "operator": "EMTUSA",
        "public_transport": "platform",
        "ref": "220"
      },
      "geometry": {
        "type": "Point",
        "coordinates": [
          -5.665294,
          43.5198647
        ]
      },
      "id": "node/1229668427"
    },
    {
      "type": "Feature",
      "properties": {
        "@id": "node/1229668467",
        "bench": "no",
        "bin": "no",
        "bus": "yes",
        "highway": "bus_stop",
        "lit": "yes",
        "name": "Río Nalon",
        "public_transport": "platform",
        "shelter": "no",
        "tactile_paving": "no"
      },
      "geometry": {
        "type": "Point",
        "coordinates": [
          -5.6653273,
          43.5218359
        ]
      },
      "id": "node/1229668467"
    },
    {
      "type": "Feature",
      "properties": {
        "@id": "node/1229684059",
        "bench": "yes",
        "bin": "no",
        "bus": "yes",
        "highway": "bus_stop",
        "lit": "yes",
        "name": "Dolores",
        "public_transport": "platform",
        "shelter": "yes",
        "tactile_paving": "no"
      },
      "geometry": {
        "type": "Point",
        "coordinates": [
          -5.6671446,
          43.5236127
        ]
      },
      "id": "node/1229684059"
    },
    {
      "type": "Feature",
      "properties": {
        "@id": "node/1229684077",
        "bus": "yes",
        "highway": "bus_stop",
        "name": "Río Cares",
        "public_transport": "platform"
      },
      "geometry": {
        "type": "Point",
        "coordinates": [
          -5.6656159,
          43.5196362
        ]
      },
      "id": "node/1229684077"
    },
    {
      "type": "Feature",
      "properties": {
        "@id": "node/1229684100",
        "bus": "yes",
        "highway": "bus_stop",
        "name": "Iglesia de Contrueces",
        "public_transport": "platform"
      },
      "geometry": {
        "type": "Point",
        "coordinates": [
          -5.6647272,
          43.5209772
        ]
      },
      "id": "node/1229684100"
    },
    {
      "type": "Feature",
      "properties": {
        "@id": "node/1229684126",
        "bench": "no",
        "bin": "no",
        "bus": "yes",
        "highway": "bus_stop",
        "lit": "yes",
        "name": "Dolores",
        "public_transport": "platform",
        "shelter": "no",
        "tactile_paving": "no"
      },
      "geometry": {
        "type": "Point",
        "coordinates": [
          -5.6670795,
          43.5234272
        ]
      },
      "id": "node/1229684126"
    },
    {
      "type": "Feature",
      "properties": {
        "@id": "node/1233785707",
        "bus": "yes",
        "highway": "bus_stop",
        "name": "Residencia Geriatrica",
        "public_transport": "platform"
      },
      "geometry": {
        "type": "Point",
        "coordinates": [
          -5.7095099,
          43.5425319
        ]
      },
      "id": "node/1233785707"
    },
    {
      "type": "Feature",
      "properties": {
        "@id": "node/1235385938",
        "bench": "no",
        "bin": "no",
        "bus": "yes",
        "check_date:shelter": "2025-06-19",
        "highway": "bus_stop",
        "lit": "yes",
        "name": "Pérez de Ayala",
        "public_transport": "platform",
        "shelter": "no",
        "tactile_paving": "no"
      },
      "geometry": {
        "type": "Point",
        "coordinates": [
          -5.6660918,
          43.5318749
        ]
      },
      "id": "node/1235385938"
    },
    {
      "type": "Feature",
      "properties": {
        "@id": "node/1235385941",
        "bench": "no",
        "bin": "no",
        "bus": "yes",
        "check_date:shelter": "2025-04-03",
        "highway": "bus_stop",
        "lit": "yes",
        "name": "Eleuterio Quintanilla",
        "operator": "EMTUSA",
        "public_transport": "platform",
        "ref": "129",
        "shelter": "no",
        "tactile_paving": "no"
      },
      "geometry": {
        "type": "Point",
        "coordinates": [
          -5.6660694,
          43.5315441
        ]
      },
      "id": "node/1235385941"
    },
    {
      "type": "Feature",
      "properties": {
        "@id": "node/1236167408",
        "bus": "yes",
        "highway": "bus_stop",
        "name": "Hermanos Felgueroso",
        "public_transport": "platform"
      },
      "geometry": {
        "type": "Point",
        "coordinates": [
          -5.6561193,
          43.5323704
        ]
      },
      "id": "node/1236167408"
    },
    {
      "type": "Feature",
      "properties": {
        "@id": "node/1236167484",
        "bench": "no",
        "bus": "yes",
        "highway": "bus_stop",
        "name": "Hermanos Felgueroso",
        "public_transport": "platform",
        "shelter": "no"
      },
      "geometry": {
        "type": "Point",
        "coordinates": [
          -5.6554535,
          43.5316878
        ]
      },
      "id": "node/1236167484"
    },
    {
      "type": "Feature",
      "properties": {
        "@id": "node/1236167515",
        "bench": "yes",
        "bin": "yes",
        "bus": "yes",
        "highway": "bus_stop",
        "lit": "yes",
        "name": "Leopoldo Alas",
        "public_transport": "platform",
        "shelter": "yes",
        "tactile_paving": "no"
      },
      "geometry": {
        "type": "Point",
        "coordinates": [
          -5.6528055,
          43.5322452
        ]
      },
      "id": "node/1236167515"
    },
    {
      "type": "Feature",
      "properties": {
        "@id": "node/1236167789",
        "bench": "no",
        "bin": "no",
        "bus": "yes",
        "highway": "bus_stop",
        "lit": "yes",
        "name": "Viesques",
        "public_transport": "platform",
        "shelter": "no",
        "tactile_paving": "no"
      },
      "geometry": {
        "type": "Point",
        "coordinates": [
          -5.64416,
          43.5293894
        ]
      },
      "id": "node/1236167789"
    },
    {
      "type": "Feature",
      "properties": {
        "@id": "node/1236305712",
        "bench": "no",
        "bin": "yes",
        "bus": "yes",
        "highway": "bus_stop",
        "lit": "yes",
        "name": "Cruce Viñao",
        "public_transport": "platform",
        "shelter": "no",
        "tactile_paving": "no"
      },
      "geometry": {
        "type": "Point",
        "coordinates": [
          -5.6422553,
          43.525445
        ]
      },
      "id": "node/1236305712"
    },
    {
      "type": "Feature",
      "properties": {
        "@id": "node/1236507743",
        "bench": "no",
        "bus": "yes",
        "highway": "bus_stop",
        "name": "Escuela Politecnica de Ingenieria",
        "public_transport": "platform",
        "shelter": "no"
      },
      "geometry": {
        "type": "Point",
        "coordinates": [
          -5.6341382,
          43.5234665
        ]
      },
      "id": "node/1236507743"
    },
    {
      "type": "Feature",
      "properties": {
        "@id": "node/1236508238",
        "bench": "yes",
        "bin": "yes",
        "bus": "yes",
        "highway": "bus_stop",
        "name": "Escuela Politecnica de Ingenieria",
        "public_transport": "platform",
        "shelter": "yes"
      },
      "geometry": {
        "type": "Point",
        "coordinates": [
          -5.6368536,
          43.5244906
        ]
      },
      "id": "node/1236508238"
    },
    {
      "type": "Feature",
      "properties": {
        "@id": "node/1236564630",
        "bus": "yes",
        "highway": "bus_stop",
        "name": "Escuela de Marina",
        "public_transport": "platform",
        "shelter": "no"
      },
      "geometry": {
        "type": "Point",
        "coordinates": [
          -5.628337,
          43.5256067
        ]
      },
      "id": "node/1236564630"
    },
    {
      "type": "Feature",
      "properties": {
        "@id": "node/1236564634",
        "bus": "yes",
        "highway": "bus_stop",
        "name": "Escuela de Marina",
        "public_transport": "platform",
        "shelter": "yes"
      },
      "geometry": {
        "type": "Point",
        "coordinates": [
          -5.6288296,
          43.5256578
        ]
      },
      "id": "node/1236564634"
    },
    {
      "type": "Feature",
      "properties": {
        "@id": "node/1236564644",
        "bench": "no",
        "bus": "yes",
        "highway": "bus_stop",
        "name": "Aulario",
        "public_transport": "platform",
        "shelter": "no"
      },
      "geometry": {
        "type": "Point",
        "coordinates": [
          -5.6260859,
          43.5229467
        ]
      },
      "id": "node/1236564644"
    },
    {
      "type": "Feature",
      "properties": {
        "@id": "node/1236564682",
        "bench": "yes",
        "bin": "yes",
        "bus": "yes",
        "highway": "bus_stop",
        "name": "Aulario",
        "public_transport": "platform",
        "shelter": "yes"
      },
      "geometry": {
        "type": "Point",
        "coordinates": [
          -5.6266643,
          43.524645
        ]
      },
      "id": "node/1236564682"
    },
    {
      "type": "Feature",
      "properties": {
        "@id": "node/1236633015",
        "bus": "yes",
        "highway": "bus_stop",
        "name": "Edificio de Energia",
        "public_transport": "platform"
      },
      "geometry": {
        "type": "Point",
        "coordinates": [
          -5.6231365,
          43.5232245
        ]
      },
      "id": "node/1236633015"
    },
    {
      "type": "Feature",
      "properties": {
        "@id": "node/1236633267",
        "bus": "yes",
        "highway": "bus_stop",
        "name": "Edificio de Energia",
        "public_transport": "platform"
      },
      "geometry": {
        "type": "Point",
        "coordinates": [
          -5.6230136,
          43.5230466
        ]
      },
      "id": "node/1236633267"
    },
    {
      "type": "Feature",
      "properties": {
        "@id": "node/1237960673",
        "bench": "no",
        "bin": "yes",
        "bus": "yes",
        "check_date:shelter": "2022-08-17",
        "highway": "bus_stop",
        "lit": "yes",
        "name": "Valencia",
        "operator": "EMTUSA",
        "public_transport": "platform",
        "ref": "127",
        "shelter": "no",
        "tactile_paving": "no"
      },
      "geometry": {
        "type": "Point",
        "coordinates": [
          -5.6670085,
          43.5275068
        ]
      },
      "id": "node/1237960673"
    },
    {
      "type": "Feature",
      "properties": {
        "@id": "node/1237960677",
        "bench": "no",
        "bin": "yes",
        "bus": "yes",
        "highway": "bus_stop",
        "lit": "yes",
        "name": "Marcelino",
        "public_transport": "platform",
        "shelter": "no",
        "tactile_paving": "no"
      },
      "geometry": {
        "type": "Point",
        "coordinates": [
          -5.6668024,
          43.5288783
        ]
      },
      "id": "node/1237960677"
    },
    {
      "type": "Feature",
      "properties": {
        "@id": "node/1237960703",
        "bench": "no",
        "bin": "yes",
        "bus": "yes",
        "highway": "bus_stop",
        "lit": "yes",
        "name": "Marcelino",
        "operator": "EMTUSA",
        "public_transport": "platform",
        "ref": "128",
        "shelter": "no",
        "tactile_paving": "no"
      },
      "geometry": {
        "type": "Point",
        "coordinates": [
          -5.6666282,
          43.5291561
        ]
      },
      "id": "node/1237960703"
    },
    {
      "type": "Feature",
      "properties": {
        "@id": "node/1237960722",
        "bench": "no",
        "bin": "no",
        "bus": "yes",
        "highway": "bus_stop",
        "lit": "yes",
        "name": "Los Fresnos",
        "public_transport": "platform",
        "shelter": "no",
        "tactile_paving": "no"
      },
      "geometry": {
        "type": "Point",
        "coordinates": [
          -5.6631119,
          43.5319484
        ]
      },
      "id": "node/1237960722"
    },
    {
      "type": "Feature",
      "properties": {
        "@id": "node/1237960760",
        "bench": "no",
        "bus": "yes",
        "highway": "bus_stop",
        "name": "Alfonso Camín",
        "public_transport": "platform",
        "shelter": "no"
      },
      "geometry": {
        "type": "Point",
        "coordinates": [
          -5.6597834,
          43.5315089
        ]
      },
      "id": "node/1237960760"
    },
    {
      "type": "Feature",
      "properties": {
        "@id": "node/1237960770",
        "bench": "no",
        "bin": "yes",
        "bus": "yes",
        "highway": "bus_stop",
        "lit": "yes",
        "name": "Los Fresnos",
        "public_transport": "platform",
        "shelter": "no",
        "tactile_paving": "no"
      },
      "geometry": {
        "type": "Point",
        "coordinates": [
          -5.6629803,
          43.5318322
        ]
      },
      "id": "node/1237960770"
    },
    {
      "type": "Feature",
      "properties": {
        "@id": "node/1237960819",
        "bench": "no",
        "bin": "no",
        "bus": "yes",
        "highway": "bus_stop",
        "name": "Ana María",
        "public_transport": "platform",
        "shelter": "no",
        "tactile_paving": "no"
      },
      "geometry": {
        "type": "Point",
        "coordinates": [
          -5.6672412,
          43.5269818
        ]
      },
      "id": "node/1237960819"
    },
    {
      "type": "Feature",
      "properties": {
        "@id": "node/1237960845",
        "bench": "yes",
        "bus": "yes",
        "highway": "bus_stop",
        "name": "Fuente del Real",
        "public_transport": "platform",
        "ref": "187",
        "shelter": "yes"
      },
      "geometry": {
        "type": "Point",
        "coordinates": [
          -5.6567357,
          43.5318684
        ]
      },
      "id": "node/1237960845"
    },
    {
      "type": "Feature",
      "properties": {
        "@id": "node/1237982616",
        "bus": "yes",
        "highway": "bus_stop",
        "name": "Iglesia de San Miguel",
        "public_transport": "platform",
        "shelter": "yes"
      },
      "geometry": {
        "type": "Point",
        "coordinates": [
          -5.672099,
          43.5272006
        ]
      },
      "id": "node/1237982616"
    },
    {
      "type": "Feature",
      "properties": {
        "@id": "node/1237982684",
        "bench": "no",
        "bin": "yes",
        "bus": "yes",
        "highway": "bus_stop",
        "lit": "yes",
        "name": "Iglesia de San Miguel",
        "public_transport": "platform",
        "shelter": "no",
        "tactile_paving": "no"
      },
      "geometry": {
        "type": "Point",
        "coordinates": [
          -5.6722316,
          43.5274617
        ]
      },
      "id": "node/1237982684"
    },
    {
      "type": "Feature",
      "properties": {
        "@id": "node/1238742820",
        "bus": "yes",
        "highway": "bus_stop",
        "name": "Maria Cristina",
        "public_transport": "platform"
      },
      "geometry": {
        "type": "Point",
        "coordinates": [
          -5.6520776,
          43.5315436
        ]
      },
      "id": "node/1238742820"
    },
    {
      "type": "Feature",
      "properties": {
        "@id": "node/1238743128",
        "bench": "no",
        "bin": "no",
        "bus": "yes",
        "highway": "bus_stop",
        "lit": "yes",
        "name": "Usandizaga",
        "public_transport": "platform",
        "shelter": "no",
        "tactile_paving": "no"
      },
      "geometry": {
        "type": "Point",
        "coordinates": [
          -5.6467006,
          43.5313127
        ]
      },
      "id": "node/1238743128"
    },
    {
      "type": "Feature",
      "properties": {
        "@id": "node/1239254788",
        "bench": "no",
        "bin": "no",
        "bus": "yes",
        "highway": "bus_stop",
        "name": "Estación de Servicio Viesques",
        "public_transport": "platform",
        "shelter": "no"
      },
      "geometry": {
        "type": "Point",
        "coordinates": [
          -5.646107,
          43.5341786
        ]
      },
      "id": "node/1239254788"
    },
    {
      "type": "Feature",
      "properties": {
        "@id": "node/1239254796",
        "bus": "yes",
        "highway": "bus_stop",
        "name": "Instituto",
        "public_transport": "platform"
      },
      "geometry": {
        "type": "Point",
        "coordinates": [
          -5.6633502,
          43.543934
        ]
      },
      "id": "node/1239254796"
    },
    {
      "type": "Feature",
      "properties": {
        "@id": "node/1239254830",
        "bench": "yes",
        "bus": "yes",
        "highway": "bus_stop",
        "name": "Residencia Geriatrica",
        "public_transport": "platform",
        "shelter": "yes"
      },
      "geometry": {
        "type": "Point",
        "coordinates": [
          -5.7082675,
          43.54285
        ]
      },
      "id": "node/1239254830"
    },
    {
      "type": "Feature",
      "properties": {
        "@id": "node/1239254869",
        "bus": "yes",
        "highway": "bus_stop",
        "name": "Rubín",
        "public_transport": "platform"
      },
      "geometry": {
        "type": "Point",
        "coordinates": [
          -5.7081873,
          43.5410235
        ]
      },
      "id": "node/1239254869"
    },
    {
      "type": "Feature",
      "properties": {
        "@id": "node/1239288290",
        "bench": "no",
        "bin": "no",
        "bus": "yes",
        "check_date:shelter": "2023-04-29",
        "highway": "bus_stop",
        "lit": "no",
        "name": "La Plazuela",
        "public_transport": "platform",
        "shelter": "no",
        "tactile_paving": "no"
      },
      "geometry": {
        "type": "Point",
        "coordinates": [
          -5.6579016,
          43.539929
        ]
      },
      "id": "node/1239288290"
    },
    {
      "type": "Feature",
      "properties": {
        "@id": "node/1239288339",
        "bus": "yes",
        "highway": "bus_stop",
        "name": "Feijoo",
        "public_transport": "platform"
      },
      "geometry": {
        "type": "Point",
        "coordinates": [
          -5.645893,
          43.5324489
        ]
      },
      "id": "node/1239288339"
    },
    {
      "type": "Feature",
      "properties": {
        "@id": "node/1239288353",
        "bus": "yes",
        "highway": "bus_stop",
        "name": "Pintor Marola",
        "public_transport": "platform"
      },
      "geometry": {
        "type": "Point",
        "coordinates": [
          -5.6468099,
          43.5355133
        ]
      },
      "id": "node/1239288353"
    },
    {
      "type": "Feature",
      "properties": {
        "@id": "node/1239288381",
        "bus": "yes",
        "highway": "bus_stop",
        "name": "Feijoo",
        "public_transport": "platform"
      },
      "geometry": {
        "type": "Point",
        "coordinates": [
          -5.6457679,
          43.5326253
        ]
      },
      "id": "node/1239288381"
    },
    {
      "type": "Feature",
      "properties": {
        "@id": "node/1239288391",
        "bench": "yes",
        "bin": "yes",
        "bus": "yes",
        "highway": "bus_stop",
        "lit": "no",
        "name": "Cruz Roja",
        "public_transport": "platform",
        "shelter": "yes",
        "tactile_paving": "no"
      },
      "geometry": {
        "type": "Point",
        "coordinates": [
          -5.6554394,
          43.5386221
        ]
      },
      "id": "node/1239288391"
    },
    {
      "type": "Feature",
      "properties": {
        "@id": "node/1251652373",
        "bus": "yes",
        "highway": "bus_stop",
        "name": "Carretera de Avilés (El Cerilleru)",
        "public_transport": "platform"
      },
      "geometry": {
        "type": "Point",
        "coordinates": [
          -5.709472,
          43.5377813
        ]
      },
      "id": "node/1251652373"
    },
    {
      "type": "Feature",
      "properties": {
        "@id": "node/1257531353",
        "bench": "yes",
        "bin": "yes",
        "bus": "yes",
        "highway": "bus_stop",
        "lit": "yes",
        "name": "Corte Inglés",
        "public_transport": "platform",
        "shelter": "yes",
        "tactile_paving": "no"
      },
      "geometry": {
        "type": "Point",
        "coordinates": [
          -5.6798571,
          43.5247997
        ]
      },
      "id": "node/1257531353"
    },
    {
      "type": "Feature",
      "properties": {
        "@id": "node/1269907450",
        "bench": "yes",
        "bin": "yes",
        "bus": "yes",
        "highway": "bus_stop",
        "lit": "yes",
        "name": "General Suarez Valdes",
        "public_transport": "platform",
        "shelter": "yes",
        "tactile_paving": "no"
      },
      "geometry": {
        "type": "Point",
        "coordinates": [
          -5.6494917,
          43.531426
        ]
      },
      "id": "node/1269907450"
    },
    {
      "type": "Feature",
      "properties": {
        "@id": "node/1269931489",
        "bus": "yes",
        "highway": "bus_stop",
        "name": "Muselín",
        "public_transport": "platform"
      },
      "geometry": {
        "type": "Point",
        "coordinates": [
          -5.7036391,
          43.5583006
        ]
      },
      "id": "node/1269931489"
    },
    {
      "type": "Feature",
      "properties": {
        "@id": "node/1269931490",
        "bench": "yes",
        "bin": "yes",
        "bus": "yes",
        "highway": "bus_stop",
        "name": "Hospital de Jove",
        "public_transport": "platform",
        "shelter": "yes",
        "wheelchair": "limited"
      },
      "geometry": {
        "type": "Point",
        "coordinates": [
          -5.7001658,
          43.5498678
        ]
      },
      "id": "node/1269931490"
    },
    {
      "type": "Feature",
      "properties": {
        "@id": "node/1269931493",
        "bus": "yes",
        "highway": "bus_stop",
        "name": "Portuarios",
        "public_transport": "platform"
      },
      "geometry": {
        "type": "Point",
        "coordinates": [
          -5.7009864,
          43.5523466
        ]
      },
      "id": "node/1269931493"
    },
    {
      "type": "Feature",
      "properties": {
        "@id": "node/1269931505",
        "bus": "yes",
        "highway": "bus_stop",
        "name": "Camín de la Iglesia",
        "public_transport": "platform"
      },
      "geometry": {
        "type": "Point",
        "coordinates": [
          -5.6994478,
          43.547526
        ]
      },
      "id": "node/1269931505"
    },
    {
      "type": "Feature",
      "properties": {
        "@id": "node/1269931527",
        "bus": "yes",
        "highway": "bus_stop",
        "name": "Muselín",
        "public_transport": "platform"
      },
      "geometry": {
        "type": "Point",
        "coordinates": [
          -5.7035668,
          43.5584959
        ]
      },
      "id": "node/1269931527"
    },
    {
      "type": "Feature",
      "properties": {
        "@id": "node/1272276212",
        "bench": "no",
        "bus": "yes",
        "highway": "bus_stop",
        "name": "Daniel Cerra",
        "public_transport": "platform",
        "shelter": "no"
      },
      "geometry": {
        "type": "Point",
        "coordinates": [
          -5.6956622,
          43.5417419
        ]
      },
      "id": "node/1272276212"
    },
    {
      "type": "Feature",
      "properties": {
        "@id": "node/1272276230",
        "bus": "yes",
        "highway": "bus_stop",
        "name": "Federica Montseny",
        "public_transport": "platform"
      },
      "geometry": {
        "type": "Point",
        "coordinates": [
          -5.6984944,
          43.5425405
        ]
      },
      "id": "node/1272276230"
    },
    {
      "type": "Feature",
      "properties": {
        "@id": "node/1272334869",
        "bench": "no",
        "bin": "yes",
        "bus": "yes",
        "highway": "bus_stop",
        "lit": "yes",
        "name": "Estación del ferrocarril (Oeste)",
        "public_transport": "platform",
        "shelter": "no",
        "tactile_paving": "no"
      },
      "geometry": {
        "type": "Point",
        "coordinates": [
          -5.6738111,
          43.5370372
        ]
      },
      "id": "node/1272334869"
    },
    {
      "type": "Feature",
      "properties": {
        "@id": "node/1272334936",
        "bench": "no",
        "bin": "no",
        "bus": "yes",
        "highway": "bus_stop",
        "lit": "yes",
        "name": "Estacion del ferrocarril (E.P.)",
        "public_transport": "platform",
        "shelter": "no",
        "tactile_paving": "no"
      },
      "geometry": {
        "type": "Point",
        "coordinates": [
          -5.6752121,
          43.5375064
        ]
      },
      "id": "node/1272334936"
    },
    {
      "type": "Feature",
      "properties": {
        "@id": "node/1272334985",
        "bench": "no",
        "bin": "yes",
        "bus": "yes",
        "highway": "bus_stop",
        "lit": "yes",
        "name": "Estación del ferrocarril (Este)",
        "public_transport": "platform",
        "shelter": "no",
        "tactile_paving": "no"
      },
      "geometry": {
        "type": "Point",
        "coordinates": [
          -5.673523,
          43.5372498
        ]
      },
      "id": "node/1272334985"
    },
    {
      "type": "Feature",
      "properties": {
        "@id": "node/1273487845",
        "bus": "yes",
        "highway": "bus_stop",
        "name": "Teodoro Cuesta",
        "public_transport": "platform"
      },
      "geometry": {
        "type": "Point",
        "coordinates": [
          -5.6718372,
          43.5388341
        ]
      },
      "id": "node/1273487845"
    },
    {
      "type": "Feature",
      "properties": {
        "@id": "node/1274494610",
        "bench": "no",
        "bin": "no",
        "bus": "yes",
        "highway": "bus_stop",
        "lit": "yes",
        "name": "Sanz Crespo",
        "public_transport": "platform",
        "shelter": "no",
        "tactile_paving": "no"
      },
      "geometry": {
        "type": "Point",
        "coordinates": [
          -5.6716801,
          43.5398676
        ]
      },
      "id": "node/1274494610"
    },
    {
      "type": "Feature",
      "properties": {
        "@id": "node/1274494630",
        "bus": "yes",
        "highway": "bus_stop",
        "name": "Casas JOP",
        "public_transport": "platform"
      },
      "geometry": {
        "type": "Point",
        "coordinates": [
          -5.6991569,
          43.5486261
        ]
      },
      "id": "node/1274494630"
    },
    {
      "type": "Feature",
      "properties": {
        "@id": "node/1274494635",
        "bus": "yes",
        "highway": "bus_stop",
        "name": "Fomentín",
        "public_transport": "platform"
      },
      "geometry": {
        "type": "Point",
        "coordinates": [
          -5.665608,
          43.5437964
        ]
      },
      "id": "node/1274494635"
    },
    {
      "type": "Feature",
      "properties": {
        "@id": "node/1274494640",
        "bus": "yes",
        "highway": "bus_stop",
        "name": "Sanz Crespo",
        "public_transport": "platform"
      },
      "geometry": {
        "type": "Point",
        "coordinates": [
          -5.6722542,
          43.5399018
        ]
      },
      "id": "node/1274494640"
    },
    {
      "type": "Feature",
      "properties": {
        "@id": "node/1274494644",
        "bus": "yes",
        "highway": "bus_stop",
        "name": "Control",
        "public_transport": "platform"
      },
      "geometry": {
        "type": "Point",
        "coordinates": [
          -5.7023213,
          43.5569416
        ]
      },
      "id": "node/1274494644"
    },
    {
      "type": "Feature",
      "properties": {
        "@id": "node/1274494652",
        "bench": "yes",
        "highway": "bus_stop",
        "name": "El Musel",
        "public_transport": "platform",
        "shelter": "yes"
      },
      "geometry": {
        "type": "Point",
        "coordinates": [
          -5.7023349,
          43.5656368
        ]
      },
      "id": "node/1274494652"
    },
    {
      "type": "Feature",
      "properties": {
        "@id": "node/1274494660",
        "bench": "yes",
        "bin": "yes",
        "bus": "yes",
        "highway": "bus_stop",
        "name": "Control",
        "public_transport": "platform",
        "shelter": "yes"
      },
      "geometry": {
        "type": "Point",
        "coordinates": [
          -5.7022949,
          43.5565675
        ]
      },
      "id": "node/1274494660"
    },
    {
      "type": "Feature",
      "properties": {
        "@id": "node/1277567722",
        "bench": "yes",
        "bin": "yes",
        "bus": "yes",
        "check_date:shelter": "2022-12-07",
        "highway": "bus_stop",
        "lit": "yes",
        "name": "Colegio Rey Pelayo",
        "public_transport": "platform",
        "shelter": "yes",
        "tactile_paving": "no"
      },
      "geometry": {
        "type": "Point",
        "coordinates": [
          -5.6720421,
          43.5314353
        ]
      },
      "id": "node/1277567722"
    },
    {
      "type": "Feature",
      "properties": {
        "@id": "node/1277567724",
        "bus": "yes",
        "highway": "bus_stop",
        "name": "Álava",
        "public_transport": "platform"
      },
      "geometry": {
        "type": "Point",
        "coordinates": [
          -5.6765073,
          43.5251822
        ]
      },
      "id": "node/1277567724"
    },
    {
      "type": "Feature",
      "properties": {
        "@id": "node/1277567733",
        "bench": "no",
        "bin": "yes",
        "bus": "yes",
        "highway": "bus_stop",
        "lit": "yes",
        "name": "Soria",
        "public_transport": "platform",
        "shelter": "no",
        "tactile_paving": "no"
      },
      "geometry": {
        "type": "Point",
        "coordinates": [
          -5.6715542,
          43.5295749
        ]
      },
      "id": "node/1277567733"
    },
    {
      "type": "Feature",
      "properties": {
        "@id": "node/1277567761",
        "bench": "no",
        "bin": "yes",
        "bus": "yes",
        "check_date:shelter": "2025-03-26",
        "highway": "bus_stop",
        "lit": "yes",
        "name": "Soria",
        "public_transport": "platform",
        "shelter": "no",
        "tactile_paving": "no"
      },
      "geometry": {
        "type": "Point",
        "coordinates": [
          -5.671578,
          43.5301795
        ]
      },
      "id": "node/1277567761"
    },
    {
      "type": "Feature",
      "properties": {
        "@id": "node/1277567771",
        "bench": "yes",
        "bin": "yes",
        "bus": "yes",
        "check_date:shelter": "2024-03-27",
        "highway": "bus_stop",
        "lit": "yes",
        "name": "Prendes Pando",
        "public_transport": "platform",
        "shelter": "yes",
        "tactile_paving": "no"
      },
      "geometry": {
        "type": "Point",
        "coordinates": [
          -5.6662369,
          43.5364271
        ]
      },
      "id": "node/1277567771"
    },
    {
      "type": "Feature",
      "properties": {
        "@id": "node/1277567773",
        "bench": "yes",
        "bin": "yes",
        "bus": "yes",
        "highway": "bus_stop",
        "lit": "yes",
        "name": "Llaranes",
        "public_transport": "platform",
        "shelter": "yes",
        "tactile_paving": "no"
      },
      "geometry": {
        "type": "Point",
        "coordinates": [
          -5.6690213,
          43.534292
        ]
      },
      "id": "node/1277567773"
    },
    {
      "type": "Feature",
      "properties": {
        "@id": "node/1277567777",
        "bench": "yes",
        "bus": "yes",
        "highway": "bus_stop",
        "name": "Estación de Autobuses",
        "public_transport": "platform",
        "shelter": "yes"
      },
      "geometry": {
        "type": "Point",
        "coordinates": [
          -5.667396,
          43.5383315
        ]
      },
      "id": "node/1277567777"
    },
    {
      "type": "Feature",
      "properties": {
        "@id": "node/1277567782",
        "bench": "yes",
        "bin": "yes",
        "bus": "yes",
        "highway": "bus_stop",
        "name": "Colegio Rey Pelayo",
        "public_transport": "platform",
        "shelter": "yes"
      },
      "geometry": {
        "type": "Point",
        "coordinates": [
          -5.6714301,
          43.5322916
        ]
      },
      "id": "node/1277567782"
    },
    {
      "type": "Feature",
      "properties": {
        "@id": "node/1277567784",
        "bench": "no",
        "bus": "yes",
        "highway": "bus_stop",
        "name": "Severo Ochoa (Rey Pelayo)",
        "public_transport": "platform",
        "shelter": "no"
      },
      "geometry": {
        "type": "Point",
        "coordinates": [
          -5.6700751,
          43.5320562
        ]
      },
      "id": "node/1277567784"
    },
    {
      "type": "Feature",
      "properties": {
        "@id": "node/1277567792",
        "bench": "yes",
        "bin": "yes",
        "bus": "yes",
        "check_date:shelter": "2023-07-04",
        "highway": "bus_stop",
        "name": "Carlos Marx",
        "public_transport": "platform",
        "shelter": "yes"
      },
      "geometry": {
        "type": "Point",
        "coordinates": [
          -5.6703823,
          43.534149
        ]
      },
      "id": "node/1277567792"
    },
    {
      "type": "Feature",
      "properties": {
        "@id": "node/1277567800",
        "bench": "no",
        "bin": "no",
        "bus": "yes",
        "highway": "bus_stop",
        "lit": "yes",
        "name": "La Mancha",
        "public_transport": "platform",
        "shelter": "no",
        "tactile_paving": "yes"
      },
      "geometry": {
        "type": "Point",
        "coordinates": [
          -5.6727941,
          43.5235796
        ]
      },
      "id": "node/1277567800"
    },
    {
      "type": "Feature",
      "properties": {
        "@id": "node/1277567806",
        "bus": "yes",
        "highway": "bus_stop",
        "name": "Río Eo",
        "public_transport": "platform"
      },
      "geometry": {
        "type": "Point",
        "coordinates": [
          -5.6749134,
          43.5245083
        ]
      },
      "id": "node/1277567806"
    },
    {
      "type": "Feature",
      "properties": {
        "@id": "node/1277567870",
        "bus": "yes",
        "highway": "bus_stop",
        "name": "L'Infiestu",
        "public_transport": "platform"
      },
      "geometry": {
        "type": "Point",
        "coordinates": [
          -5.6687305,
          43.5364674
        ]
      },
      "id": "node/1277567870"
    },
    {
      "type": "Feature",
      "properties": {
        "@id": "node/1277567879",
        "bus": "yes",
        "highway": "bus_stop",
        "name": "Rio Eo",
        "public_transport": "platform"
      },
      "geometry": {
        "type": "Point",
        "coordinates": [
          -5.6752529,
          43.5245482
        ]
      },
      "id": "node/1277567879"
    },
    {
      "type": "Feature",
      "properties": {
        "@id": "node/1277567887",
        "bench": "yes",
        "bin": "yes",
        "bus": "yes",
        "check_date:shelter": "2023-02-04",
        "highway": "bus_stop",
        "lit": "yes",
        "name": "Manuel Llaneza",
        "public_transport": "platform",
        "shelter": "yes",
        "tactile_paving": "no"
      },
      "geometry": {
        "type": "Point",
        "coordinates": [
          -5.668239,
          43.5347366
        ]
      },
      "id": "node/1277567887"
    },
    {
      "type": "Feature",
      "properties": {
        "@id": "node/1277567937",
        "bench": "yes",
        "bin": "yes",
        "bus": "yes",
        "highway": "bus_stop",
        "name": "C.M.I. Gijón Sur",
        "public_transport": "platform",
        "shelter": "yes",
        "tactile_paving": "no"
      },
      "geometry": {
        "type": "Point",
        "coordinates": [
          -5.6781678,
          43.5252339
        ]
      },
      "id": "node/1277567937"
    },
    {
      "type": "Feature",
      "properties": {
        "@id": "node/1277567949",
        "bench": "no",
        "bin": "yes",
        "bus": "yes",
        "highway": "bus_stop",
        "lit": "yes",
        "name": "Gaspar García Laviana",
        "public_transport": "platform",
        "shelter": "no",
        "tactile_paving": "no"
      },
      "geometry": {
        "type": "Point",
        "coordinates": [
          -5.6726125,
          43.5258207
        ]
      },
      "id": "node/1277567949"
    },
    {
      "type": "Feature",
      "properties": {
        "@id": "node/1277567958",
        "bench": "yes",
        "bin": "yes",
        "bus": "yes",
        "highway": "bus_stop",
        "lit": "yes",
        "name": "Gaspar García Laviana",
        "public_transport": "platform",
        "shelter": "yes",
        "tactile_paving": "no"
      },
      "geometry": {
        "type": "Point",
        "coordinates": [
          -5.6724015,
          43.525911
        ]
      },
      "id": "node/1277567958"
    },
    {
      "type": "Feature",
      "properties": {
        "@id": "node/1279858118",
        "bench": "no",
        "bin": "no",
        "bus": "yes",
        "highway": "bus_stop",
        "name": "Campu La Guía",
        "public_transport": "platform",
        "shelter": "no",
        "tactile_paving": "no"
      },
      "geometry": {
        "type": "Point",
        "coordinates": [
          -5.6326183,
          43.5335174
        ]
      },
      "id": "node/1279858118"
    },
    {
      "type": "Feature",
      "properties": {
        "@id": "node/1279858385",
        "bench": "yes",
        "bin": "yes",
        "bus": "yes",
        "highway": "bus_stop",
        "lit": "yes",
        "name": "Plaza Villamanín",
        "public_transport": "platform",
        "shelter": "yes",
        "tactile_paving": "no"
      },
      "geometry": {
        "type": "Point",
        "coordinates": [
          -5.6206718,
          43.5342706
        ]
      },
      "id": "node/1279858385"
    },
    {
      "type": "Feature",
      "properties": {
        "@id": "node/1279858454",
        "bench": "no",
        "bus": "yes",
        "highway": "bus_stop",
        "name": "Candenal",
        "public_transport": "platform",
        "shelter": "no"
      },
      "geometry": {
        "type": "Point",
        "coordinates": [
          -5.6131472,
          43.528819
        ]
      },
      "id": "node/1279858454"
    },
    {
      "type": "Feature",
      "properties": {
        "@id": "node/1279858463",
        "bench": "no",
        "bin": "no",
        "bus": "yes",
        "highway": "bus_stop",
        "lit": "no",
        "name": "Campu La Guía",
        "public_transport": "platform",
        "shelter": "no",
        "tactile_paving": "no"
      },
      "geometry": {
        "type": "Point",
        "coordinates": [
          -5.6333047,
          43.5335359
        ]
      },
      "id": "node/1279858463"
    },
    {
      "type": "Feature",
      "properties": {
        "@id": "node/1279858525",
        "bench": "no",
        "bin": "no",
        "bus": "yes",
        "highway": "bus_stop",
        "lit": "yes",
        "name": "Plaza Villamanín",
        "public_transport": "platform",
        "shelter": "no",
        "tactile_paving": "no"
      },
      "geometry": {
        "type": "Point",
        "coordinates": [
          -5.6210394,
          43.5340893
        ]
      },
      "id": "node/1279858525"
    },
    {
      "type": "Feature",
      "properties": {
        "@id": "node/1283168102",
        "bench": "yes",
        "bin": "yes",
        "bus": "yes",
        "highway": "bus_stop",
        "lit": "yes",
        "name": "Iglesia de San Julián",
        "public_transport": "platform",
        "shelter": "yes",
        "tactile_paving": "no"
      },
      "geometry": {
        "type": "Point",
        "coordinates": [
          -5.6232138,
          43.5355171
        ]
      },
      "id": "node/1283168102"
    },
    {
      "type": "Feature",
      "properties": {
        "@id": "node/1283168122",
        "bench": "no",
        "bin": "no",
        "bus": "yes",
        "highway": "bus_stop",
        "lit": "no",
        "name": "Dionisio Cifuentes",
        "public_transport": "platform",
        "shelter": "no",
        "tactile_paving": "no"
      },
      "geometry": {
        "type": "Point",
        "coordinates": [
          -5.6230042,
          43.5356029
        ]
      },
      "id": "node/1283168122"
    },
    {
      "type": "Feature",
      "properties": {
        "@id": "node/1283168293",
        "bus": "yes",
        "highway": "bus_stop",
        "name": "Camín de Bérbora",
        "public_transport": "platform"
      },
      "geometry": {
        "type": "Point",
        "coordinates": [
          -5.6135322,
          43.5316804
        ]
      },
      "id": "node/1283168293"
    },
    {
      "type": "Feature",
      "properties": {
        "@id": "node/1283168337",
        "bench": "no",
        "bin": "no",
        "bus": "yes",
        "highway": "bus_stop",
        "lit": "yes",
        "name": "Museo Evaristo Valle",
        "public_transport": "platform",
        "shelter": "no",
        "tactile_paving": "no"
      },
      "geometry": {
        "type": "Point",
        "coordinates": [
          -5.6171595,
          43.533484
        ]
      },
      "id": "node/1283168337"
    },
    {
      "type": "Feature",
      "properties": {
        "@id": "node/1283168586",
        "bench": "no",
        "bin": "no",
        "bus": "yes",
        "highway": "bus_stop",
        "lit": "yes",
        "name": "Profesor Pérez Pimentel",
        "public_transport": "platform",
        "shelter": "yes",
        "tactile_paving": "no"
      },
      "geometry": {
        "type": "Point",
        "coordinates": [
          -5.6278054,
          43.5330738
        ]
      },
      "id": "node/1283168586"
    },
    {
      "type": "Feature",
      "properties": {
        "@id": "node/1283168672",
        "bench": "no",
        "bin": "no",
        "bus": "yes",
        "highway": "bus_stop",
        "lit": "yes",
        "name": "Profesor Pérez Pimentel",
        "public_transport": "platform",
        "shelter": "no",
        "tactile_paving": "no"
      },
      "geometry": {
        "type": "Point",
        "coordinates": [
          -5.6276685,
          43.5330416
        ]
      },
      "id": "node/1283168672"
    },
    {
      "type": "Feature",
      "properties": {
        "@id": "node/1283168743",
        "bench": "no",
        "bin": "no",
        "bus": "yes",
        "highway": "bus_stop",
        "name": "Camín de Bérbora",
        "public_transport": "platform",
        "shelter": "no",
        "tactile_paving": "no"
      },
      "geometry": {
        "type": "Point",
        "coordinates": [
          -5.6131569,
          43.5313771
        ]
      },
      "id": "node/1283168743"
    },
    {
      "type": "Feature",
      "properties": {
        "@id": "node/1285547180",
        "bench": "no",
        "bin": "no",
        "bus": "yes",
        "highway": "bus_stop",
        "name": "Puerto de Tarna",
        "public_transport": "platform",
        "shelter": "no",
        "wheelchair": "yes"
      },
      "geometry": {
        "type": "Point",
        "coordinates": [
          -5.6738234,
          43.5312966
        ]
      },
      "id": "node/1285547180"
    },
    {
      "type": "Feature",
      "properties": {
        "@id": "node/1285547189",
        "bus": "yes",
        "highway": "bus_stop",
        "name": "Puerto de San Isidro",
        "public_transport": "platform",
        "shelter": "yes"
      },
      "geometry": {
        "type": "Point",
        "coordinates": [
          -5.6760857,
          43.5338248
        ]
      },
      "id": "node/1285547189"
    },
    {
      "type": "Feature",
      "properties": {
        "@id": "node/1285547204",
        "bus": "yes",
        "highway": "bus_stop",
        "name": "Puerto del Pontón",
        "public_transport": "platform",
        "shelter": "yes"
      },
      "geometry": {
        "type": "Point",
        "coordinates": [
          -5.6766629,
          43.5317995
        ]
      },
      "id": "node/1285547204"
    },
    {
      "type": "Feature",
      "properties": {
        "@id": "node/1285547209",
        "bus": "yes",
        "highway": "bus_stop",
        "name": "Puerto Tarna",
        "public_transport": "platform"
      },
      "geometry": {
        "type": "Point",
        "coordinates": [
          -5.6761239,
          43.5336347
        ]
      },
      "id": "node/1285547209"
    },
    {
      "type": "Feature",
      "properties": {
        "@id": "node/1285547215",
        "bench": "yes",
        "bin": "yes",
        "bus": "yes",
        "highway": "bus_stop",
        "lit": "yes",
        "name": "Puerto de Somiedo",
        "public_transport": "platform",
        "shelter": "yes",
        "tactile_paving": "yes"
      },
      "geometry": {
        "type": "Point",
        "coordinates": [
          -5.6744323,
          43.5328709
        ]
      },
      "id": "node/1285547215"
    },
    {
      "type": "Feature",
      "properties": {
        "@id": "node/1285547226",
        "bus": "yes",
        "highway": "bus_stop",
        "name": "Puerto de Tarna",
        "public_transport": "platform",
        "shelter": "yes",
        "tactile_paving": "no"
      },
      "geometry": {
        "type": "Point",
        "coordinates": [
          -5.6737933,
          43.5314846
        ]
      },
      "id": "node/1285547226"
    },
    {
      "type": "Feature",
      "properties": {
        "@id": "node/1397834902",
        "bench": "no",
        "bin": "yes",
        "bus": "yes",
        "highway": "bus_stop",
        "name": "Calderon de la Barca",
        "public_transport": "platform",
        "shelter": "no",
        "tactile_paving": "yes"
      },
      "geometry": {
        "type": "Point",
        "coordinates": [
          -5.6485666,
          43.5335701
        ]
      },
      "id": "node/1397834902"
    },
    {
      "type": "Feature",
      "properties": {
        "@id": "node/1769002588",
        "bench": "yes",
        "bin": "yes",
        "bus": "yes",
        "highway": "bus_stop",
        "lit": "yes",
        "name": "Avenida de Castilla",
        "public_transport": "platform",
        "shelter": "yes",
        "tactile_paving": "no"
      },
      "geometry": {
        "type": "Point",
        "coordinates": [
          -5.6450795,
          43.5393112
        ]
      },
      "id": "node/1769002588"
    },
    {
      "type": "Feature",
      "properties": {
        "@id": "node/1801574211",
        "bus": "yes",
        "highway": "bus_stop",
        "name": "Comisaría",
        "public_transport": "platform"
      },
      "geometry": {
        "type": "Point",
        "coordinates": [
          -5.6794934,
          43.5388696
        ]
      },
      "id": "node/1801574211"
    },
    {
      "type": "Feature",
      "properties": {
        "@id": "node/1867489734",
        "bench": "no",
        "bin": "no",
        "bus": "yes",
        "highway": "bus_stop",
        "lit": "yes",
        "name": "Luciano Castañón",
        "public_transport": "platform",
        "shelter": "no",
        "tactile_paving": "no"
      },
      "geometry": {
        "type": "Point",
        "coordinates": [
          -5.6531722,
          43.5385524
        ]
      },
      "id": "node/1867489734"
    },
    {
      "type": "Feature",
      "properties": {
        "@id": "node/1889052268",
        "bench": "yes",
        "bin": "yes",
        "bus": "yes",
        "highway": "bus_stop",
        "lit": "yes",
        "name": "Fabrica de Gas",
        "public_transport": "platform",
        "shelter": "yes",
        "tactile_paving": "no"
      },
      "geometry": {
        "type": "Point",
        "coordinates": [
          -5.6516403,
          43.5392592
        ]
      },
      "id": "node/1889052268"
    },
    {
      "type": "Feature",
      "properties": {
        "@id": "node/2675751605",
        "bench": "no",
        "bin": "yes",
        "bus": "yes",
        "highway": "bus_stop",
        "lit": "yes",
        "name": "Carreño Miranda",
        "public_transport": "platform",
        "shelter": "no",
        "tactile_paving": "no"
      },
      "geometry": {
        "type": "Point",
        "coordinates": [
          -5.6437417,
          43.5363526
        ]
      },
      "id": "node/2675751605"
    },
    {
      "type": "Feature",
      "properties": {
        "@id": "node/2675751606",
        "bench": "no",
        "bin": "yes",
        "bus": "yes",
        "highway": "bus_stop",
        "lit": "yes",
        "name": "Marques de Urquijo",
        "public_transport": "platform",
        "shelter": "no",
        "tactile_paving": "no"
      },
      "geometry": {
        "type": "Point",
        "coordinates": [
          -5.6475609,
          43.5381245
        ]
      },
      "id": "node/2675751606"
    },
    {
      "type": "Feature",
      "properties": {
        "@id": "node/2675837846",
        "bus": "yes",
        "highway": "bus_stop",
        "name": "Candenal",
        "public_transport": "platform"
      },
      "geometry": {
        "type": "Point",
        "coordinates": [
          -5.612878,
          43.5284332
        ]
      },
      "id": "node/2675837846"
    },
    {
      "type": "Feature",
      "properties": {
        "@id": "node/2675837851",
        "bench": "no",
        "bin": "no",
        "bus": "yes",
        "highway": "bus_stop",
        "lit": "yes",
        "name": "Crisantemos",
        "public_transport": "platform",
        "shelter": "no",
        "tactile_paving": "no"
      },
      "geometry": {
        "type": "Point",
        "coordinates": [
          -5.6139738,
          43.5263661
        ]
      },
      "id": "node/2675837851"
    },
    {
      "type": "Feature",
      "properties": {
        "@id": "node/2675837855",
        "bench": "yes",
        "bin": "yes",
        "bus": "yes",
        "highway": "bus_stop",
        "lit": "no",
        "name": "Crisantemos",
        "public_transport": "platform",
        "shelter": "yes",
        "tactile_paving": "no"
      },
      "geometry": {
        "type": "Point",
        "coordinates": [
          -5.6137023,
          43.5265629
        ]
      },
      "id": "node/2675837855"
    },
    {
      "type": "Feature",
      "properties": {
        "@id": "node/2675837860",
        "bench": "no",
        "bin": "no",
        "bus": "yes",
        "highway": "bus_stop",
        "lit": "yes",
        "name": "La Mancha",
        "public_transport": "platform",
        "shelter": "no",
        "tactile_paving": "no"
      },
      "geometry": {
        "type": "Point",
        "coordinates": [
          -5.6728604,
          43.5240167
        ]
      },
      "id": "node/2675837860"
    },
    {
      "type": "Feature",
      "properties": {
        "@id": "node/2677473978",
        "bench": "no",
        "bin": "no",
        "bus": "yes",
        "highway": "bus_stop",
        "lit": "yes",
        "name": "Albert Einstein",
        "public_transport": "platform",
        "shelter": "no",
        "tactile_paving": "no"
      },
      "geometry": {
        "type": "Point",
        "coordinates": [
          -5.6416766,
          43.5280224
        ]
      },
      "id": "node/2677473978"
    },
    {
      "type": "Feature",
      "properties": {
        "@id": "node/2677473979",
        "bus": "yes",
        "highway": "bus_stop",
        "name": "Albert Einstein",
        "public_transport": "platform"
      },
      "geometry": {
        "type": "Point",
        "coordinates": [
          -5.6419991,
          43.5280438
        ]
      },
      "id": "node/2677473979"
    },
    {
      "type": "Feature",
      "properties": {
        "@id": "node/2677473980",
        "bench": "yes",
        "bin": "yes",
        "bus": "yes",
        "highway": "bus_stop",
        "lit": "yes",
        "name": "Corte Inglés",
        "public_transport": "platform",
        "shelter": "yes",
        "tactile_paving": "no"
      },
      "geometry": {
        "type": "Point",
        "coordinates": [
          -5.679959,
          43.5251071
        ]
      },
      "id": "node/2677473980"
    },
    {
      "type": "Feature",
      "properties": {
        "@id": "node/2677473981",
        "bus": "yes",
        "highway": "bus_stop",
        "name": "Avelino G. Mallada",
        "public_transport": "platform"
      },
      "geometry": {
        "type": "Point",
        "coordinates": [
          -5.6538218,
          43.5330429
        ]
      },
      "id": "node/2677473981"
    },
    {
      "type": "Feature",
      "properties": {
        "@id": "node/2677473982",
        "bench": "yes",
        "bus": "yes",
        "highway": "bus_stop",
        "name": "Biblioteca",
        "public_transport": "platform",
        "shelter": "yes"
      },
      "geometry": {
        "type": "Point",
        "coordinates": [
          -5.6836391,
          43.5189389
        ]
      },
      "id": "node/2677473982"
    },
    {
      "type": "Feature",
      "properties": {
        "@id": "node/2677473983",
        "bench": "no",
        "bin": "no",
        "bus": "yes",
        "check_date:shelter": "2023-02-02",
        "highway": "bus_stop",
        "name": "Bomberos",
        "public_transport": "platform",
        "shelter": "no",
        "tactile_paving": "no"
      },
      "geometry": {
        "type": "Point",
        "coordinates": [
          -5.6782447,
          43.5156463
        ]
      },
      "id": "node/2677473983"
    },
    {
      "type": "Feature",
      "properties": {
        "@id": "node/2677473984",
        "bench": "yes",
        "bin": "no",
        "bus": "yes",
        "highway": "bus_stop",
        "name": "Bomberos",
        "public_transport": "platform",
        "shelter": "yes",
        "tactile_paving": "no"
      },
      "geometry": {
        "type": "Point",
        "coordinates": [
          -5.6781729,
          43.5153552
        ]
      },
      "id": "node/2677473984"
    },
    {
      "type": "Feature",
      "properties": {
        "@id": "node/2677473985",
        "bench": "no",
        "bin": "yes",
        "bus": "yes",
        "check_date:shelter": "2024-06-13",
        "highway": "bus_stop",
        "lit": "yes",
        "name": "Campo de Futbol",
        "public_transport": "platform",
        "shelter": "no",
        "tactile_paving": "no"
      },
      "geometry": {
        "type": "Point",
        "coordinates": [
          -5.6779396,
          43.5168556
        ]
      },
      "id": "node/2677473985"
    },
    {
      "type": "Feature",
      "properties": {
        "@id": "node/2677473987",
        "bench": "yes",
        "bin": "yes",
        "bus": "yes",
        "highway": "bus_stop",
        "lit": "yes",
        "name": "Cangas de Onis",
        "public_transport": "platform",
        "shelter": "yes",
        "tactile_paving": "no"
      },
      "geometry": {
        "type": "Point",
        "coordinates": [
          -5.6670617,
          43.5359687
        ]
      },
      "id": "node/2677473987"
    },